time,filename,lng,lat,E,N,H,H_ellipsoid,yaw,pitch,roll,accuracy_index
065008.221,000001.jpg,120.63209763,24.04871392,212582.955,2660467.024,39.784,16.200,-180,0,0,0.2
065008.721,000002.jpg,120.63209761,24.04871392,212582.953,2660467.024,39.784,16.200,-180,0,0,0.2
065009.228,000003.jpg,120.63209761,24.04871393,212582.953,2660467.025,39.787,16.200,-180,0,0,0.2
071101.252,000004.jpg,120.63193325,24.04880625,212566.263,2660477.294,39.148,16.200,91.07,0,0,0.2
071101.753,000005.jpg,120.63193322,24.04880625,212566.260,2660477.294,39.149,16.200,91.07,0,0,0.2
071102.257,000006.jpg,120.63193324,24.04880626,212566.262,2660477.295,39.149,16.200,91.07,0,0,0.2
071102.760,000007.jpg,120.63193322,24.04880624,212566.260,2660477.293,39.152,16.200,91.07,0,0,0.2
071103.266,000008.jpg,120.63193322,24.04880624,212566.260,2660477.293,39.15,16.200,91.07,0,0,0.2
071103.769,000009.jpg,120.63193321,24.04880624,212566.259,2660477.293,39.148,16.200,91.07,0,0,0.2
071104.271,000010.jpg,120.63193324,24.04880626,212566.262,2660477.295,39.146,16.200,91.07,0,0,0.2
071606.175,000011.jpg,120.63193320,24.04880616,212566.258,2660477.284,41.086,16.200,91.07,0,0,0.2
071606.676,000012.jpg,120.63193170,24.04880652,212566.106,2660477.324,41.447,16.200,121.63,0,0,0.2
071607.182,000013.jpg,120.63193014,24.04880695,212565.947,2660477.372,41.931,16.200,124.7,0,0,0.2
071607.685,000014.jpg,120.63192885,24.04880730,212565.816,2660477.411,42.508,16.200,132.23,0,0,0.2
071608.189,000015.jpg,120.63192799,24.04880746,212565.729,2660477.429,43.122,16.200,133.17,0,0,0.2
071608.693,000016.jpg,120.63192749,24.04880738,212565.678,2660477.420,43.738,16.200,133.17,0,0,0.2
071609.194,000017.jpg,120.63192719,24.04880714,212565.647,2660477.394,44.348,16.200,133.17,0,0,0.2
071609.699,000018.jpg,120.63192678,24.04880704,212565.606,2660477.383,45.001,16.200,133.17,0,0,0.2
071610.201,000019.jpg,120.63192625,24.04880692,212565.552,2660477.370,45.694,16.200,133.17,0,0,0.2
071610.704,000020.jpg,120.63192594,24.04880685,212565.520,2660477.362,46.408,16.200,133.17,0,0,0.2
071611.217,000021.jpg,120.63192570,24.04880678,212565.496,2660477.354,47.16,16.200,133.17,0,0,0.2
071611.720,000022.jpg,120.63192557,24.04880680,212565.482,2660477.357,47.996,16.200,133.17,0,0,0.2
071612.222,000023.jpg,120.63192549,24.04880685,212565.474,2660477.362,48.917,16.200,133.17,0,0,0.2
071612.724,000024.jpg,120.63192550,24.04880688,212565.475,2660477.365,49.857,16.200,133.17,0,0,0.2
071613.229,000025.jpg,120.63192552,24.04880696,212565.477,2660477.374,50.817,16.200,133.17,0,0,0.2
071613.736,000026.jpg,120.63192545,24.04880708,212565.470,2660477.388,51.788,16.200,133.17,0,0,0.2
071614.242,000027.jpg,120.63192542,24.04880719,212565.467,2660477.400,52.776,16.200,133.17,0,0,0.2
071614.744,000028.jpg,120.63192545,24.04880722,212565.470,2660477.403,53.759,16.200,133.17,0,0,0.2
071615.247,000029.jpg,120.63192541,24.04880713,212565.466,2660477.393,54.731,16.200,133.17,0,0,0.2
071615.750,000030.jpg,120.63192535,24.04880700,212565.460,2660477.379,55.717,16.200,133.17,0,0,0.2
071616.252,000031.jpg,120.63192524,24.04880683,212565.449,2660477.360,56.762,16.200,133.17,0,0,0.2
071616.760,000032.jpg,120.63192509,24.04880676,212565.434,2660477.352,57.889,16.200,133.17,0,0,0.2
071617.266,000033.jpg,120.63192504,24.04880666,212565.428,2660477.341,59.02,16.200,133.17,0,0,0.2
071617.771,000034.jpg,120.63192493,24.04880660,212565.417,2660477.335,60.14,16.200,133.17,0,0,0.2
071618.272,000035.jpg,120.63192492,24.04880655,212565.416,2660477.329,61.231,16.200,133.17,0,0,0.2
071618.775,000036.jpg,120.63192494,24.04880657,212565.418,2660477.331,62.331,16.200,133.17,0,0,0.2
071619.277,000037.jpg,120.63192499,24.04880663,212565.423,2660477.338,63.478,16.200,133.17,0,0,0.2
071619.780,000038.jpg,120.63192506,24.04880675,212565.431,2660477.351,64.666,16.200,133.17,0,0,0.2
071620.283,000039.jpg,120.63192506,24.04880690,212565.431,2660477.368,65.882,16.200,133.17,0,0,0.2
071620.785,000040.jpg,120.63192505,24.04880705,212565.430,2660477.384,67.085,16.200,133.17,0,0,0.2
071621.293,000041.jpg,120.63192497,24.04880713,212565.422,2660477.393,68.127,16.200,133.17,0,0,0.2
071621.796,000042.jpg,120.63192491,24.04880724,212565.415,2660477.405,68.552,16.200,133.17,0,0,0.2
071622.300,000043.jpg,120.63192478,24.04880749,212565.402,2660477.433,68.61,16.200,133.17,0,0,0.2
071622.803,000044.jpg,120.63192460,24.04880770,212565.384,2660477.457,68.705,16.200,133.17,0,0,0.2
071623.305,000045.jpg,120.63192444,24.04880776,212565.368,2660477.463,69.291,16.200,133.17,0,0,0.2
071623.811,000046.jpg,120.63192433,24.04880773,212565.357,2660477.460,70.442,16.200,133.17,0,0,0.2
071624.315,000047.jpg,120.63192436,24.04880766,212565.360,2660477.452,71.664,16.200,133.17,0,0,0.2
071624.817,000048.jpg,120.63192454,24.04880749,212565.378,2660477.433,72.848,16.200,133.17,0,0,0.2
071625.319,000049.jpg,120.63192478,24.04880741,212565.402,2660477.424,74.038,16.200,133.17,0,0,0.2
071625.821,000050.jpg,120.63192498,24.04880740,212565.423,2660477.423,75.26,16.200,133.17,0,0,0.2
071626.325,000051.jpg,120.63192515,24.04880739,212565.440,2660477.422,76.502,16.200,133.17,0,0,0.2
071626.828,000052.jpg,120.63192529,24.04880737,212565.454,2660477.420,77.748,16.200,133.17,0,0,0.2
071627.332,000053.jpg,120.63192535,24.04880731,212565.460,2660477.413,79.001,16.200,133.17,0,0,0.2
071627.836,000054.jpg,120.63192539,24.04880728,212565.464,2660477.410,80.281,16.200,133.17,0,0,0.2
071628.338,000055.jpg,120.63192543,24.04880732,212565.468,2660477.414,81.588,16.200,133.17,0,0,0.2
071628.841,000056.jpg,120.63192547,24.04880747,212565.472,2660477.431,82.875,16.200,133.17,0,0,0.2
071629.343,000057.jpg,120.63192546,24.04880761,212565.471,2660477.446,84.118,16.200,133.17,0,0,0.2
071629.847,000058.jpg,120.63192537,24.04880774,212565.462,2660477.461,85.358,16.200,133.17,0,0,0.2
071630.349,000059.jpg,120.63192525,24.04880789,212565.450,2660477.477,86.616,16.200,133.17,0,0,0.2
071630.855,000060.jpg,120.63192512,24.04880810,212565.437,2660477.501,87.883,16.200,133.17,0,0,0.2
071631.367,000061.jpg,120.63192503,24.04880831,212565.428,2660477.524,89.151,16.200,133.17,0,0,0.2
071631.874,000062.jpg,120.63192508,24.04880842,212565.433,2660477.536,90.374,16.200,133.17,0,0,0.2
071632.376,000063.jpg,120.63192519,24.04880840,212565.444,2660477.534,91.609,16.200,133.17,0,0,0.2
071632.882,000064.jpg,120.63192531,24.04880828,212565.456,2660477.521,92.896,16.200,133.17,0,0,0.2
071633.384,000065.jpg,120.63192549,24.04880820,212565.475,2660477.512,94.149,16.200,133.17,0,0,0.2
071633.887,000066.jpg,120.63192566,24.04880814,212565.492,2660477.505,95.409,16.200,133.17,0,0,0.2
071634.389,000067.jpg,120.63192589,24.04880808,212565.515,2660477.498,96.686,16.200,133.17,0,0,0.2
071634.891,000068.jpg,120.63192605,24.04880803,212565.532,2660477.493,97.95,16.200,133.17,0,0,0.2
071635.392,000069.jpg,120.63192622,24.04880809,212565.549,2660477.499,99.184,16.200,133.17,0,0,0.2
071635.894,000070.jpg,120.63192635,24.04880838,212565.562,2660477.531,100.192,16.200,133.17,0,0,0.2
071636.396,000071.jpg,120.63192444,24.04880855,212565.368,2660477.551,100.508,16.200,78.37,0,0,0.2
071636.898,000072.jpg,120.63191829,24.04880793,212564.742,2660477.484,100.462,16.200,77.6,0,0,0.2
071637.402,000073.jpg,120.63190321,24.04880536,212563.208,2660477.203,100.399,16.200,80.41,0,0,0.2
071637.906,000074.jpg,120.63187940,24.04880240,212560.785,2660476.882,100.376,16.200,82.28,0,0,0.2
071638.408,000075.jpg,120.63184800,24.04879922,212557.591,2660476.538,100.338,16.200,83.47,0,0,0.2
071638.915,000076.jpg,120.63180883,24.04879591,212553.606,2660476.182,100.279,16.200,84.7,0,0,0.2
071639.417,000077.jpg,120.63176305,24.04879257,212548.949,2660475.824,100.212,16.200,85.47,0,0,0.2
071639.923,000078.jpg,120.63170894,24.04878872,212543.445,2660475.412,100.126,16.200,85.39,0,0,0.2
071640.424,000079.jpg,120.63164733,24.04878365,212537.177,2660474.867,100.101,16.200,84.68,0,0,0.2
071640.927,000080.jpg,120.63157686,24.04877745,212530.009,2660474.199,100.123,16.200,84.46,0,0,0.2
071641.434,000081.jpg,120.63149707,24.04877101,212521.892,2660473.507,100.123,16.200,85.29,0,0,0.2
071641.938,000082.jpg,120.63140990,24.04876607,212513.025,2660472.983,100.355,16.200,87.48,0,0,0.2
071642.440,000083.jpg,120.63131596,24.04876456,212503.470,2660472.841,100.892,16.200,89.79,0,0,0.2
071642.942,000084.jpg,120.63121618,24.04876652,212493.323,2660473.085,101.613,16.200,91.92,0,0,0.2
071643.444,000085.jpg,120.63111201,24.04877172,212482.729,2660473.688,102.484,16.200,94.05,0,0,0.2
071643.951,000086.jpg,120.63100474,24.04878085,212471.822,2660474.728,103.532,16.200,95.76,0,0,0.2
071644.453,000087.jpg,120.63089645,24.04879206,212460.812,2660475.999,104.532,16.200,96.87,0,0,0.2
071644.955,000088.jpg,120.63078754,24.04880581,212449.739,2660477.550,105.319,16.200,97.87,0,0,0.2
071645.457,000089.jpg,120.63067747,24.04882089,212438.549,2660479.250,105.967,16.200,98.74,0,0,0.2
071645.967,000090.jpg,120.63056457,24.04883742,212427.071,2660481.111,106.687,16.200,99.25,0,0,0.2
071646.470,000091.jpg,120.63045124,24.04885459,212415.550,2660483.043,107.288,16.200,99.36,0,0,0.2
071646.973,000092.jpg,120.63033714,24.04887290,212403.951,2660485.101,107.779,16.200,99.52,0,0,0.2
071647.477,000093.jpg,120.63022126,24.04889078,212392.171,2660487.112,108.653,16.200,99.71,0,0,0.2
071647.979,000094.jpg,120.63010470,24.04890941,212380.321,2660489.207,109.663,16.200,100.18,0,0,0.2
071648.482,000095.jpg,120.62998779,24.04892908,212368.437,2660491.416,110.472,16.200,100.48,0,0,0.2
071648.987,000096.jpg,120.62987129,24.04894920,212356.594,2660493.676,111.113,16.200,100.75,0,0,0.2
071649.488,000097.jpg,120.62975666,24.04896953,212344.942,2660495.958,111.745,16.190,100.95,0,0,0.2
071649.990,000098.jpg,120.62964235,24.04899012,212333.322,2660498.269,112.312,16.199,101.1,0,0,0.2
071650.492,000099.jpg,120.62952774,24.04901086,212321.672,2660500.597,112.819,16.200,101.09,0,0,0.2
071650.995,000100.jpg,120.62941223,24.04903187,212309.930,2660502.954,113.334,16.190,101.18,0,0,0.2
071651.503,000101.jpg,120.62929419,24.04905340,212297.931,2660505.371,113.767,16.190,101.02,0,0,0.2
071652.006,000102.jpg,120.62917580,24.04907450,212285.896,2660507.739,114.051,16.190,100.85,0,0,0.2
071652.510,000103.jpg,120.62905598,24.04909518,212273.716,2660510.062,114.407,16.190,100.53,0,0,0.2
071653.012,000104.jpg,120.62893626,24.04911499,212261.546,2660512.288,114.932,16.190,100.16,0,0,0.2
071653.519,000105.jpg,120.62881563,24.04913454,212249.283,2660514.485,115.687,16.190,100.04,0,0,0.2
071654.026,000106.jpg,120.62869588,24.04915404,212237.110,2660516.677,116.572,16.190,100.13,0,0,0.2
071654.530,000107.jpg,120.62857818,24.04917328,212225.145,2660518.839,117.516,16.190,100.11,0,0,0.2
071655.033,000108.jpg,120.62846109,24.04919245,212213.242,2660520.994,118.414,16.190,100.06,0,0,0.2
071655.535,000109.jpg,120.62834462,24.04921133,212201.402,2660523.116,119.221,16.190,99.9,0,0,0.2
071656.037,000110.jpg,120.62822879,24.04922971,212189.627,2660525.183,119.311,16.190,99.36,0,0,0.2
071656.542,000111.jpg,120.62811089,24.04924790,212177.641,2660527.229,118.526,16.190,98.97,0,0,0.2
071657.045,000112.jpg,120.62799050,24.04926575,212165.402,2660529.238,117.234,16.190,98.65,0,0,0.2
071657.548,000113.jpg,120.62786370,24.04928291,212152.511,2660531.173,115.76,16.190,98.22,0,0,0.2
071658.051,000114.jpg,120.62772971,24.04930010,212138.889,2660533.113,114.468,16.190,97.77,0,0,0.2
071658.555,000115.jpg,120.62758785,24.04931706,212124.466,2660535.029,113.608,16.190,97.36,0,0,0.2
071659.057,000116.jpg,120.62744068,24.04933272,212109.503,2660536.803,113.581,16.190,96.21,0,0,0.2
071659.560,000117.jpg,120.62729007,24.04934453,212094.189,2660538.152,114.561,16.190,94.43,0,0,0.2
071700.062,000118.jpg,120.62713669,24.04935037,212078.591,2660538.840,116.606,16.190,91.83,0,0,0.2
071700.567,000119.jpg,120.62698536,24.04934713,212063.199,2660538.522,119.416,16.190,87.35,0,0,0.2
071701.070,000120.jpg,120.62684350,24.04933157,212048.767,2660536.837,122.412,16.190,80.88,0,0,0.2
071701.578,000121.jpg,120.62671118,24.04930106,212035.300,2660533.494,125.549,16.190,73.62,0,0,0.2
071702.080,000122.jpg,120.62659217,24.04925882,212023.184,2660528.848,128.571,16.190,66.48,0,0,0.2
071702.589,000123.jpg,120.62648475,24.04920840,212012.244,2660523.293,131.28,16.190,61.53,0,0,0.2
071703.091,000124.jpg,120.62638680,24.04915462,212002.266,2660517.363,133.377,16.190,58.46,0,0,0.2
071703.594,000125.jpg,120.62629475,24.04910189,211992.889,2660511.548,134.577,16.190,56.61,0,0,0.2
071704.099,000126.jpg,120.62620382,24.04904972,211983.626,2660505.795,134.688,16.190,55.09,0,0,0.2
071704.602,000127.jpg,120.62611001,24.04900121,211974.070,2660500.448,133.751,16.190,54.33,0,0,0.2
071705.104,000128.jpg,120.62600615,24.04895539,211963.494,2660495.402,132.026,16.190,57.21,0,0,0.2
071705.606,000129.jpg,120.62588659,24.04891385,211951.322,2660490.833,129.781,16.190,65.99,0,0,0.2
071706.109,000130.jpg,120.62574954,24.04888166,211937.374,2660487.305,127.558,16.190,78.19,0,0,0.2
071706.611,000131.jpg,120.62559684,24.04886463,211921.838,2660485.461,125.933,16.190,85.9,0,0,0.2
071707.119,000132.jpg,120.62543009,24.04886757,211904.880,2660485.832,125.373,16.190,94.46,0,0,0.2
071707.627,000133.jpg,120.62525821,24.04889536,211887.407,2660488.956,126.036,16.190,101.45,0,0,0.2
071708.132,000134.jpg,120.62509012,24.04895017,211870.328,2660495.072,127.87,16.190,106.22,0,0,0.2
071708.637,000135.jpg,120.62493359,24.04903260,211854.432,2660504.243,130.805,16.190,110.15,0,0,0.2
071709.140,000136.jpg,120.62480161,24.04913916,211841.041,2660516.080,134.794,16.190,111.76,0,0,0.2
071709.641,000137.jpg,120.62470156,24.04926049,211830.901,2660529.545,139.228,16.190,118.24,0,0,0.2
071710.144,000138.jpg,120.62462863,24.04938680,211823.521,2660543.553,143.539,16.190,122.1,0,0,0.2
071710.646,000139.jpg,120.62457843,24.04951224,211818.453,2660557.459,147.403,16.190,157.35,0,0,0.2
071711.147,000140.jpg,120.62454500,24.04963554,211815.089,2660571.124,150.285,16.190,166.7,0,0,0.2
071711.657,000141.jpg,120.62452371,24.04975890,211812.961,2660584.792,152.047,16.190,171.22,0,0,0.2
071712.163,000142.jpg,120.62451231,24.04987805,211811.836,2660597.991,152.561,16.190,175.68,0,0,0.2
071712.665,000143.jpg,120.62450905,24.04999494,211811.539,2660610.937,151.843,16.190,179.16,0,0,0.2
071713.170,000144.jpg,120.62451459,24.05011107,211812.137,2660623.797,150.085,16.190,-176.57,0,0,0.2
071713.676,000145.jpg,120.62452986,24.05022651,211813.724,2660636.578,147.605,16.190,-171.65,0,0,0.2
071714.182,000146.jpg,120.62455647,24.05034123,211816.465,2660649.276,144.661,16.190,-166.16,0,0,0.2
071714.683,000147.jpg,120.62459539,24.05045291,211820.456,2660661.634,141.499,16.190,-160.85,0,0,0.2
071715.185,000148.jpg,120.62464567,24.05056476,211825.603,2660674.007,138.304,16.190,-155.56,0,0,0.2
071715.687,000149.jpg,120.62471038,24.05067604,211832.217,2660686.314,135.343,16.190,-149.92,0,0,0.2
071716.188,000150.jpg,120.62479058,24.05078470,211840.406,2660698.326,132.934,16.190,-143.73,0,0,0.2
071716.690,000151.jpg,120.62488879,24.05088867,211850.425,2660709.814,131.275,16.190,-136.69,0,0,0.2
071717.193,000152.jpg,120.62500356,24.05098264,211862.125,2660720.190,130.542,16.190,-128.93,0,0,0.2
071717.695,000153.jpg,120.62513126,24.05106025,211875.135,2660728.751,130.849,16.190,-120.96,0,0,0.2
071718.196,000154.jpg,120.62526905,24.05111951,211889.166,2660735.276,131.787,16.190,-112.73,0,0,0.2
071718.698,000155.jpg,120.62541106,24.05115623,211903.620,2660739.305,133.261,16.190,-103.13,0,0,0.2
071719.202,000156.jpg,120.62555375,24.05117114,211918.136,2660740.917,134.998,16.190,-93.91,0,0,0.2
071719.703,000157.jpg,120.62568953,24.05116335,211931.943,2660740.018,136.814,16.190,-83.48,0,0,0.2
071720.205,000158.jpg,120.62581668,24.05113699,211944.867,2660737.064,138.588,16.190,-74.8,0,0,0.2
071720.709,000159.jpg,120.62593385,24.05109682,211956.772,2660732.583,140.097,16.190,-67.72,0,0,0.2
071721.210,000160.jpg,120.62604015,24.05104699,211967.568,2660727.036,141.137,16.190,-61.42,0,0,0.2
071721.721,000161.jpg,120.62613893,24.05098826,211977.597,2660720.505,141.557,16.190,-55.87,0,0,0.2
071722.223,000162.jpg,120.62622744,24.05092415,211986.580,2660713.381,141.335,16.190,-50.47,0,0,0.2
071722.729,000163.jpg,120.62630802,24.05085309,211994.754,2660705.489,140.482,16.190,-44.8,0,0,0.2
071723.231,000164.jpg,120.62637912,24.05077592,212001.962,2660696.923,139.15,16.190,-38.74,0,0,0.2
071723.734,000165.jpg,120.62644081,24.05069144,212008.212,2660687.551,137.457,16.190,-32.1,0,0,0.2
071724.236,000166.jpg,120.62649315,24.05059987,212013.508,2660677.395,135.592,16.190,-25.69,0,0,0.2
071724.738,000167.jpg,120.62653526,24.05049963,212017.761,2660666.282,133.793,16.190,-19.04,0,0,0.2
071725.245,000168.jpg,120.62656555,24.05039068,212020.810,2660654.208,132.271,16.190,-12.16,0,0,0.2
071725.747,000169.jpg,120.62658151,24.05027621,212022.399,2660641.526,131.263,16.190,-5.5,0,0,0.2
071726.248,000170.jpg,120.62658395,24.05015782,212022.612,2660628.414,130.922,16.190,0.44,0,0,0.2
071726.750,000171.jpg,120.62657441,24.05004033,212021.608,2660615.404,131.402,16.190,5.53,0,0,0.2
071727.252,000172.jpg,120.62655627,24.04992679,212019.729,2660602.835,132.63,16.190,9.11,0,0,0.2
071727.757,000173.jpg,120.62653504,24.04981793,212017.538,2660590.784,134.367,16.190,10.48,0,0,0.2
071728.259,000174.jpg,120.62651357,24.04971389,212015.324,2660579.268,136.347,16.190,10.65,0,0,0.2
071728.765,000175.jpg,120.62649441,24.04961213,212013.345,2660568.003,138.27,16.190,9.77,0,0,0.2
071729.272,000176.jpg,120.62647803,24.04951392,212011.650,2660557.131,139.91,16.190,7.96,0,0,0.2
071729.774,000177.jpg,120.62646661,24.04941828,212010.461,2660546.542,140.984,16.190,5.66,0,0,0.2
071730.278,000178.jpg,120.62646034,24.04932352,212009.795,2660536.049,141.464,16.190,3.04,0,0,0.2
071730.781,000179.jpg,120.62645918,24.04922941,212009.650,2660525.627,141.301,16.190,-0.14,0,0,0.2
071731.284,000180.jpg,120.62646358,24.04913488,212010.069,2660515.156,140.563,16.190,-3.16,0,0,0.2
071731.796,000181.jpg,120.62647502,24.04903718,212011.204,2660504.333,139.369,16.190,-6.65,0,0,0.2
071732.305,000182.jpg,120.62649224,24.04893684,212012.926,2660493.216,137.925,16.190,-10.02,0,0,0.2
071732.809,000183.jpg,120.62651722,24.04883483,212015.436,2660481.911,136.499,16.190,-13.61,0,0,0.2
071733.314,000184.jpg,120.62655085,24.04873035,212018.826,2660470.331,135.311,16.190,-17.61,0,0,0.2
071733.818,000185.jpg,120.62659282,24.04862562,212023.064,2660458.721,134.486,16.190,-21.68,0,0,0.2
071734.320,000186.jpg,120.62664385,24.04852286,212028.224,2660447.327,134.232,16.190,-25.79,0,0,0.2
071734.827,000187.jpg,120.62670347,24.04842227,212034.258,2660436.170,134.545,16.190,-30,0,0,0.2
071735.333,000188.jpg,120.62676993,24.04832717,212040.989,2660425.620,135.433,16.190,-34.14,0,0,0.2
071735.837,000189.jpg,120.62684165,24.04823841,212048.257,2660415.771,136.703,16.194,-37.88,0,0,0.2
071736.338,000190.jpg,120.62691585,24.04815566,212055.779,2660406.586,138.172,16.194,-40.32,0,0,0.2
071736.839,000191.jpg,120.62699112,24.04807758,212063.412,2660397.919,139.554,16.194,-41.88,0,0,0.2
071737.343,000192.jpg,120.62706666,24.04800295,212071.073,2660389.633,140.61,16.196,-42.87,0,0,0.2
071737.849,000193.jpg,120.62714170,24.04793062,212078.683,2660381.602,141.204,16.200,-43.44,0,0,0.2
071738.354,000194.jpg,120.62721565,24.04786019,212086.184,2660373.782,141.266,16.200,-43.47,0,0,0.2
071738.855,000195.jpg,120.62728782,24.04779076,212093.504,2660366.073,140.715,16.200,-43.22,0,0,0.2
071739.357,000196.jpg,120.62736097,24.04772024,212100.923,2660358.244,139.651,16.200,-42.71,0,0,0.2
071739.861,000197.jpg,120.62743456,24.04764664,212108.386,2660350.073,138.237,16.200,-42.08,0,0,0.2
071740.365,000198.jpg,120.62750965,24.04756957,212116.000,2660341.517,136.686,16.200,-41.47,0,0,0.2
071740.868,000199.jpg,120.62758614,24.04748834,212123.756,2660332.500,135.277,16.200,-40.61,0,0,0.2
071741.371,000200.jpg,120.62766456,24.04740350,212131.706,2660323.083,134.195,16.200,-39.61,0,0,0.2
071741.880,000201.jpg,120.62774376,24.04731330,212139.735,2660313.072,133.639,16.200,-38.93,0,0,0.2
071742.384,000202.jpg,120.62782221,24.04722251,212147.687,2660302.996,133.675,16.200,-38.36,0,0,0.2
071742.887,000203.jpg,120.62789893,24.04713094,212155.463,2660292.834,134.305,16.200,-37.84,0,0,0.2
071743.388,000204.jpg,120.62797445,24.04704063,212163.118,2660282.812,135.47,16.200,-37.81,0,0,0.2
071743.891,000205.jpg,120.62804886,24.04695329,212170.660,2660273.119,137.013,16.200,-37.93,0,0,0.2
071744.394,000206.jpg,120.62812046,24.04686775,212177.917,2660263.626,138.539,16.200,-38.08,0,0,0.2
071744.895,000207.jpg,120.62819130,24.04678643,212185.098,2660254.601,139.725,16.200,-38.54,0,0,0.2
071745.398,000208.jpg,120.62826192,24.04670671,212192.257,2660245.753,140.494,16.200,-39.31,0,0,0.2
071745.900,000209.jpg,120.62833240,24.04663035,212199.403,2660237.277,140.709,16.200,-39.96,0,0,0.2
071746.401,000210.jpg,120.62840347,24.04655521,212206.610,2660228.937,140.378,16.200,-40.81,0,0,0.2
071746.903,000211.jpg,120.62847608,24.04648041,212213.973,2660220.633,139.609,16.200,-41.41,0,0,0.2
071747.405,000212.jpg,120.62855039,24.04640511,212221.508,2660212.274,138.579,16.200,-41.96,0,0,0.2
071747.907,000213.jpg,120.62862652,24.04632834,212229.229,2660203.751,137.43,16.200,-42.09,0,0,0.2
071748.416,000214.jpg,120.62870569,24.04624817,212237.257,2660194.851,136.237,16.200,-41.88,0,0,0.2
071748.917,000215.jpg,120.62878474,24.04616607,212245.273,2660185.737,135.211,16.200,-41.27,0,0,0.2
071749.420,000216.jpg,120.62886341,24.04607955,212253.249,2660176.134,134.431,16.200,-38.85,0,0,0.2
071749.926,000217.jpg,120.62894014,24.04598580,212261.026,2660165.731,134.035,16.200,-35.7,0,0,0.2
071750.428,000218.jpg,120.62901055,24.04588718,212268.158,2660154.790,134.087,16.200,-32.2,0,0,0.2
071750.930,000219.jpg,120.62907119,24.04578418,212274.296,2660143.366,134.298,16.200,-26.78,0,0,0.2
071751.432,000220.jpg,120.62911771,24.04567714,212278.996,2660131.499,134.498,16.200,-19.87,0,0,0.2
071751.945,000221.jpg,120.62915001,24.04556436,212282.248,2660119.000,134.649,16.200,-12.45,0,0,0.2
071752.448,000222.jpg,120.62916672,24.04545179,212283.915,2660106.529,134.824,16.200,-5.73,0,0,0.2
071752.951,000223.jpg,120.62917036,24.04534003,212284.252,2660094.150,135.175,16.200,-0.3,0,0,0.2
071753.455,000224.jpg,120.62916488,24.04523136,212283.663,2660082.117,135.727,16.200,3.22,0,0,0.2
071753.957,000225.jpg,120.62915619,24.04512541,212282.748,2660070.385,136.374,16.200,4.69,0,0,0.2
071754.459,000226.jpg,120.62914645,24.04502089,212281.727,2660058.812,136.954,16.200,4.84,0,0,0.2
071754.966,000227.jpg,120.62913852,24.04491504,212280.890,2660047.091,137.524,16.200,3.74,0,0,0.2
071755.475,000228.jpg,120.62913240,24.04480876,212280.236,2660035.323,138.033,16.200,2.39,0,0,0.2
071755.978,000229.jpg,120.62913006,24.04470434,212279.968,2660023.759,138.456,16.200,0.89,0,0,0.2
071756.480,000230.jpg,120.62913003,24.04460192,212279.935,2660012.416,138.75,16.200,-0.55,0,0,0.2
071756.982,000231.jpg,120.62913307,24.04449948,212280.214,2660001.070,138.891,16.200,-1.54,0,0,0.2
071757.486,000232.jpg,120.62913744,24.04439717,212280.629,2659989.738,138.842,16.200,-2.62,0,0,0.2
071757.990,000233.jpg,120.62914364,24.04429486,212281.229,2659978.406,138.601,16.200,-3.44,0,0,0.2
071758.493,000234.jpg,120.62915223,24.04419122,212282.073,2659966.925,138.17,16.200,-4.21,0,0,0.2
071758.996,000235.jpg,120.62916165,24.04408721,212283.000,2659955.404,137.705,16.200,-5.17,0,0,0.2
071759.498,000236.jpg,120.62917417,24.04398204,212284.243,2659943.753,137.306,16.200,-6.26,0,0,0.2
071800.005,000237.jpg,120.62918790,24.04387463,212285.608,2659931.853,137.054,16.200,-7.2,0,0,0.2
071800.507,000238.jpg,120.62920336,24.04376762,212287.149,2659919.998,137.008,16.200,-7.72,0,0,0.2
071801.009,000239.jpg,120.62921909,24.04366032,212288.718,2659908.110,137.202,16.200,-7.63,0,0,0.2
071801.515,000240.jpg,120.62923419,24.04355292,212290.222,2659896.212,137.555,16.200,-7.3,0,0,0.2
071802.025,000241.jpg,120.62924862,24.04344615,212291.659,2659884.383,138.022,16.203,-7.15,0,0,0.2
071802.533,000242.jpg,120.62926283,24.04334182,212293.074,2659872.825,138.567,16.207,-7.23,0,0,0.2
071803.039,000243.jpg,120.62927732,24.04323917,212294.518,2659861.453,139.051,16.204,-7.5,0,0,0.2
071803.541,000244.jpg,120.62929218,24.04313873,212296.000,2659850.325,139.35,16.210,-7.85,0,0,0.2
071804.046,000245.jpg,120.62930798,24.04303888,212297.577,2659839.263,139.445,16.210,-8.35,0,0,0.2
071804.549,000246.jpg,120.62932384,24.04293947,212299.162,2659828.249,139.298,16.210,-8.18,0,0,0.2
071805.058,000247.jpg,120.62933935,24.04283775,212300.709,2659816.979,138.935,16.210,-7.85,0,0,0.2
071805.566,000248.jpg,120.62935478,24.04273391,212302.248,2659805.475,138.409,16.210,-7.56,0,0,0.2
071806.069,000249.jpg,120.62936904,24.04262944,212303.668,2659793.901,137.755,16.210,-6.61,0,0,0.2
071806.570,000250.jpg,120.62937994,24.04252194,212304.746,2659781.992,136.985,16.210,-4.8,0,0,0.2
071807.079,000251.jpg,120.62938662,24.04241028,212305.392,2659769.624,136.202,16.210,-2.31,0,0,0.2
071807.581,000252.jpg,120.62938787,24.04229653,212305.486,2659757.026,135.626,16.210,0.24,0,0,0.2
071808.083,000253.jpg,120.62938380,24.04218218,212305.039,2659744.363,135.367,16.210,2.63,0,0,0.2
071808.586,000254.jpg,120.62937547,24.04206773,212304.158,2659731.690,135.394,16.210,4.07,0,0,0.2
071809.089,000255.jpg,120.62936548,24.04195506,212303.109,2659719.215,135.732,16.210,4.99,0,0,0.2
071809.592,000256.jpg,120.62935408,24.04184315,212301.917,2659706.824,136.312,16.210,5.53,0,0,0.2
071810.098,000257.jpg,120.62934259,24.04173283,212300.716,2659694.609,137.076,16.210,5.34,0,0,0.2
071810.600,000258.jpg,120.62933167,24.04162617,212299.575,2659682.800,137.984,16.210,5.2,0,0,0.2
071811.102,000259.jpg,120.62932164,24.04152060,212298.524,2659671.110,138.921,16.210,4.83,0,0,0.2
071811.606,000260.jpg,120.62931245,24.04141598,212297.558,2659659.526,139.591,16.210,4.53,0,0,0.2
071812.122,000261.jpg,120.62930492,24.04131084,212296.762,2659647.884,139.945,16.210,3.52,0,0,0.2
071812.628,000262.jpg,120.62929994,24.04120872,212296.225,2659636.576,140.007,16.210,2.21,0,0,0.2
071813.130,000263.jpg,120.62929759,24.04110749,212295.957,2659625.365,139.813,16.210,1.13,0,0,0.2
071813.635,000264.jpg,120.62929663,24.04100461,212295.829,2659613.972,139.363,16.210,0.45,0,0,0.2
071814.142,000265.jpg,120.62929641,24.04089971,212295.776,2659602.354,138.712,16.210,0.15,0,0,0.2
071814.644,000266.jpg,120.62929628,24.04079429,212295.732,2659590.679,137.963,16.210,0.13,0,0,0.2
071815.147,000267.jpg,120.62929575,24.04068604,212295.647,2659578.690,137.172,16.210,0.5,0,0,0.2
071815.648,000268.jpg,120.62929338,24.04057661,212295.374,2659566.572,136.448,16.210,1.09,0,0,0.2
071816.151,000269.jpg,120.62929069,24.04046478,212295.067,2659554.187,136.016,16.210,1.34,0,0,0.2
071816.661,000270.jpg,120.62928743,24.04034947,212294.702,2659541.418,135.976,16.210,1.46,0,0,0.2
071817.163,000271.jpg,120.62928392,24.04023702,212294.312,2659528.965,136.26,16.210,1.54,0,0,0.2
071817.666,000272.jpg,120.62928067,24.04012445,212293.949,2659516.499,136.863,16.210,1.37,0,0,0.2
071818.169,000273.jpg,120.62927791,24.04001316,212293.636,2659504.174,137.703,16.210,1.31,0,0,0.2
071818.677,000274.jpg,120.62927568,24.03990367,212293.377,2659492.049,138.547,16.210,1.18,0,0,0.2
071819.181,000275.jpg,120.62927410,24.03979686,212293.185,2659480.220,139.309,16.210,0.46,0,0,0.2
071819.684,000276.jpg,120.62927396,24.03969212,212293.140,2659468.620,139.98,16.210,-0.11,0,0,0.2
071820.185,000277.jpg,120.62927466,24.03959010,212293.182,2659457.321,140.403,16.210,-0.49,0,0,0.2
071820.688,000278.jpg,120.62927614,24.03948800,212293.302,2659446.014,140.466,16.210,-0.85,0,0,0.2
071821.194,000279.jpg,120.62927814,24.03938590,212293.476,2659434.706,140.147,16.210,-1.04,0,0,0.2
071821.695,000280.jpg,120.62928026,24.03928478,212293.662,2659423.506,139.434,16.210,-0.99,0,0,0.2
071822.205,000281.jpg,120.62928260,24.03918006,212293.870,2659411.908,138.561,16.210,-0.85,0,0,0.2
071822.709,000282.jpg,120.62928406,24.03907496,212293.987,2659400.268,137.592,16.210,-0.53,0,0,0.2
071823.211,000283.jpg,120.62928404,24.03896799,212293.954,2659388.421,136.779,16.210,0.31,0,0,0.2
071823.713,000284.jpg,120.62928246,24.03885900,212293.762,2659376.351,136.177,16.210,0.97,0,0,0.2
071824.215,000285.jpg,120.62927955,24.03874804,212293.433,2659364.063,135.809,16.210,1.43,0,0,0.2
071824.719,000286.jpg,120.62927567,24.03863512,212293.006,2659351.558,135.837,16.210,1.88,0,0,0.2
071825.221,000287.jpg,120.62927171,24.03852254,212292.570,2659339.091,136.157,16.218,1.7,0,0,0.2
071825.725,000288.jpg,120.62926794,24.03841016,212292.154,2659326.646,136.795,16.210,1.76,0,0,0.2
071826.229,000289.jpg,120.62926390,24.03829892,212291.710,2659314.327,137.488,16.220,1.92,0,0,0.2
071826.733,000290.jpg,120.62926027,24.03818899,212291.309,2659302.153,138.156,16.220,1.58,0,0,0.2
071827.236,000291.jpg,120.62925842,24.03808048,212291.089,2659290.137,138.716,16.220,0.84,0,0,0.2
071827.738,000292.jpg,120.62925760,24.03797277,212290.974,2659278.208,139.128,16.220,0.15,0,0,0.2
071828.240,000293.jpg,120.62925775,24.03786559,212290.958,2659266.338,139.343,16.220,-0.12,0,0,0.2
071828.746,000294.jpg,120.62925846,24.03775837,212290.999,2659254.463,139.418,16.220,-0.39,0,0,0.2
071829.248,000295.jpg,120.62925965,24.03765296,212291.089,2659242.789,139.329,16.220,-0.69,0,0,0.2
071829.750,000296.jpg,120.62926164,24.03754842,212291.261,2659231.210,139.116,16.220,-1.09,0,0,0.2
071830.253,000297.jpg,120.62926414,24.03744382,212291.485,2659219.625,138.852,16.220,-1.24,0,0,0.2
071830.757,000298.jpg,120.62926622,24.03733892,212291.666,2659208.007,138.438,16.220,-0.8,0,0,0.2
071831.261,000299.jpg,120.62926712,24.03723368,212291.727,2659196.352,138.024,16.220,-0.19,0,0,0.2
071831.763,000300.jpg,120.62926700,24.03712857,212291.684,2659184.711,137.601,16.220,0.12,0,0,0.2
071832.273,000301.jpg,120.62926758,24.03702105,212291.712,2659172.803,137.218,16.220,-0.78,0,0,0.2
071832.776,000302.jpg,120.62927337,24.03691395,212292.269,2659160.940,137.226,16.220,-3.36,0,0,0.2
071833.278,000303.jpg,120.62928502,24.03681047,212293.424,2659149.477,137.523,16.220,-7.65,0,0,0.2
071833.781,000304.jpg,120.62930825,24.03670964,212295.757,2659138.304,138.032,16.220,-13.65,0,0,0.2
071834.283,000305.jpg,120.62934219,24.03661207,212299.181,2659127.489,138.944,16.220,-19.39,0,0,0.2
071834.785,000306.jpg,120.62938427,24.03651633,212303.433,2659116.874,140.207,16.220,-23.44,0,0,0.2
071835.287,000307.jpg,120.62943240,24.03642453,212308.302,2659106.695,141.737,16.220,-26.58,0,0,0.2
071835.789,000308.jpg,120.62948304,24.03633606,212313.427,2659096.883,143.252,16.220,-28.16,0,0,0.2
071836.294,000309.jpg,120.62953389,24.03624921,212318.574,2659087.251,144.641,16.220,-28.39,0,0,0.2
071836.796,000310.jpg,120.62958172,24.03616479,212323.414,2659077.889,145.661,16.220,-27.74,0,0,0.2
071837.299,000311.jpg,120.62962783,24.03608080,212328.080,2659068.575,146.148,16.220,-25.88,0,0,0.2
071837.803,000312.jpg,120.62966968,24.03599534,212332.312,2659059.099,145.976,16.220,-23.48,0,0,0.2
071838.306,000313.jpg,120.62970823,24.03590695,212336.207,2659049.299,145.299,16.220,-20.88,0,0,0.2
071838.810,000314.jpg,120.62974374,24.03581469,212339.792,2659039.072,144.253,16.220,-18.6,0,0,0.2
071839.312,000315.jpg,120.62977581,24.03571863,212343.026,2659028.425,143.067,16.220,-16.24,0,0,0.2
071839.814,000316.jpg,120.62980481,24.03561856,212345.947,2659017.334,142.011,16.220,-14.34,0,0,0.2
071840.319,000317.jpg,120.62983181,24.03551454,212348.663,2659005.807,141.207,16.220,-13.13,0,0,0.2
071840.822,000318.jpg,120.62985760,24.03540895,212351.255,2658994.106,140.802,16.220,-12.76,0,0,0.2
071841.327,000319.jpg,120.62988380,24.03530227,212353.889,2658982.284,140.841,16.220,-13.11,0,0,0.2
071841.830,000320.jpg,120.62991136,24.03519647,212356.661,2658970.560,141.313,16.220,-13.94,0,0,0.2
071842.348,000321.jpg,120.62994137,24.03508912,212359.683,2658958.663,142.155,16.220,-15.14,0,0,0.2
071842.856,000322.jpg,120.62997230,24.03498646,212362.799,2658947.285,143.147,16.220,-15.9,0,0,0.2
071843.360,000323.jpg,120.63000396,24.03488658,212365.990,2658936.215,144.071,16.220,-16.54,0,0,0.2
071843.866,000324.jpg,120.63003648,24.03478923,212369.269,2658925.425,144.854,16.220,-17.12,0,0,0.2
071844.371,000325.jpg,120.63007019,24.03469353,212372.670,2658914.817,145.364,16.220,-17.65,0,0,0.2
071844.873,000326.jpg,120.63010361,24.03459985,212376.042,2658904.433,145.518,16.220,-18.17,0,0,0.2
071845.375,000327.jpg,120.63013744,24.03450775,212379.457,2658894.224,145.297,16.220,-18.46,0,0,0.2
071845.876,000328.jpg,120.63017164,24.03441432,212382.908,2658883.868,144.766,16.220,-18.66,0,0,0.2
071846.381,000329.jpg,120.63020648,24.03432010,212386.424,2658873.424,144.017,16.230,-18.67,0,0,0.2
071846.885,000330.jpg,120.63024147,24.03422441,212389.956,2658862.817,143.182,16.220,-18.28,0,0,0.2
071847.387,000331.jpg,120.63027603,24.03412591,212393.442,2658851.899,142.364,16.230,-17.58,0,0,0.2
071847.891,000332.jpg,120.63030981,24.03402513,212396.849,2658840.728,141.685,16.230,-16.74,0,0,0.2
071848.394,000333.jpg,120.63034163,24.03392142,212400.055,2658829.234,141.316,16.230,-16.07,0,0,0.2
071848.896,000334.jpg,120.63037330,24.03381786,212403.247,2658817.756,141.295,16.230,-15.8,0,0,0.2
071849.397,000335.jpg,120.63040472,24.03371443,212406.412,2658806.293,141.627,16.230,-15.77,0,0,0.2
071849.900,000336.jpg,120.63043652,24.03361191,212409.617,2658794.931,142.215,16.230,-16.06,0,0,0.2
071850.407,000337.jpg,120.63046872,24.03350987,212412.863,2658783.621,142.976,16.230,-16.37,0,0,0.2
071850.917,000338.jpg,120.63050139,24.03340949,212416.157,2658772.495,143.762,16.230,-16.84,0,0,0.2
071851.419,000339.jpg,120.63053414,24.03331251,212419.460,2658761.746,144.439,16.230,-17.29,0,0,0.2
071851.921,000340.jpg,120.63056730,24.03321710,212422.805,2658751.171,144.932,16.230,-17.81,0,0,0.2
071852.434,000341.jpg,120.63060183,24.03312058,212426.289,2658740.472,145.124,16.230,-18.15,0,0,0.2
071852.946,000342.jpg,120.63063661,24.03302462,212429.799,2658729.835,144.976,16.230,-18.33,0,0,0.2
071853.449,000343.jpg,120.63067085,24.03293006,212433.254,2658719.354,144.518,16.230,-18.33,0,0,0.2
071853.951,000344.jpg,120.63070525,24.03283474,212436.725,2658708.788,143.83,16.230,-18.13,0,0,0.2
071854.457,000345.jpg,120.63073986,24.03273644,212440.217,2658697.892,143.067,16.230,-17.73,0,0,0.2
071854.959,000346.jpg,120.63077413,24.03263748,212443.674,2658686.923,142.414,16.230,-17.53,0,0,0.2
071855.464,000347.jpg,120.63080879,24.03253591,212447.170,2658675.665,141.902,16.230,-17.41,0,0,0.2
071855.966,000348.jpg,120.63084378,24.03243251,212450.699,2658664.204,141.634,16.230,-17.39,0,0,0.2
071856.467,000349.jpg,120.63087873,24.03232839,212454.224,2658652.664,141.631,16.230,-17.01,0,0,0.2
071856.970,000350.jpg,120.63091283,24.03222342,212457.662,2658641.029,141.878,16.230,-16.61,0,0,0.2
071857.472,000351.jpg,120.63094640,24.03211940,212461.047,2658629.500,142.37,16.230,-16.6,0,0,0.2
071857.976,000352.jpg,120.63097990,24.03201673,212464.424,2658618.121,142.907,16.230,-16.67,0,0,0.2
071858.478,000353.jpg,120.63101312,24.03191519,212467.774,2658606.866,143.451,16.230,-16.78,0,0,0.2
071858.980,000354.jpg,120.63104601,24.03181516,212471.091,2658595.779,143.903,16.230,-16.89,0,0,0.2
071859.483,000355.jpg,120.63107901,24.03171630,212474.418,2658584.822,144.309,16.230,-17.15,0,0,0.2
071859.989,000356.jpg,120.63111254,24.03161873,212477.801,2658574.007,144.494,16.230,-17.41,0,0,0.2
071900.492,000357.jpg,120.63114619,24.03152160,212481.195,2658563.241,144.505,16.230,-17.69,0,0,0.2
071900.996,000358.jpg,120.63118021,24.03142474,212484.628,2658552.505,144.295,16.230,-17.93,0,0,0.2
071901.498,000359.jpg,120.63121452,24.03132811,212488.090,2658541.794,143.926,16.230,-17.91,0,0,0.2
071902.000,000360.jpg,120.63124846,24.03122944,212491.513,2658530.857,143.544,16.230,-17.52,0,0,0.2
071902.507,000361.jpg,120.63128292,24.03112782,212494.989,2658519.594,143.169,16.230,-17.1,0,0,0.2
071903.009,000362.jpg,120.63131659,24.03102511,212498.384,2658508.210,142.815,16.230,-16.64,0,0,0.2
071903.512,000363.jpg,120.63135024,24.03092076,212501.777,2658496.644,142.57,16.230,-16.58,0,0,0.2
071904.018,000364.jpg,120.63138436,24.03081465,212505.216,2658484.883,142.489,16.230,-16.43,0,0,0.2
071904.520,000365.jpg,120.63141812,24.03070882,212508.620,2658473.154,142.52,16.230,-16.38,0,0,0.2
071905.023,000366.jpg,120.63145206,24.03060330,212512.042,2658461.459,142.68,16.230,-16.58,0,0,0.2
071905.525,000367.jpg,120.63148601,24.03049907,212515.465,2658449.906,142.974,16.230,-16.79,0,0,0.2
071906.028,000368.jpg,120.63152000,24.03039650,212518.892,2658438.538,143.332,16.230,-16.96,0,0,0.2
071906.528,000369.jpg,120.63155351,24.03029634,212522.272,2658427.436,143.723,16.230,-17.22,0,0,0.2
071907.034,000370.jpg,120.63158756,24.03019753,212525.707,2658416.484,144.095,16.230,-17.64,0,0,0.2
071907.540,000371.jpg,120.63162159,24.03010022,212529.140,2658405.698,144.456,16.230,-17.83,0,0,0.2
071908.048,000372.jpg,120.63165557,24.03000379,212532.569,2658395.009,144.719,16.230,-17.88,0,0,0.2
071908.554,000373.jpg,120.63168925,24.02990867,212535.967,2658384.466,144.838,16.230,-17.97,0,0,0.2
071909.057,000374.jpg,120.63172239,24.02981459,212539.311,2658374.038,144.835,16.230,-17.77,0,0,0.2
071909.562,000375.jpg,120.63175443,24.02972014,212542.542,2658363.569,144.701,16.230,-17.39,0,0,0.2
071910.064,000376.jpg,120.63178606,24.02962601,212545.732,2658353.136,144.475,16.230,-16.94,0,0,0.2
071910.567,000377.jpg,120.63181709,24.02953141,212548.861,2658342.651,144.158,16.237,-16.53,0,0,0.2
071911.068,000378.jpg,120.63184736,24.02943642,212551.913,2658332.122,143.842,16.230,-16.19,0,0,0.2
071911.570,000379.jpg,120.63187747,24.02934002,212554.948,2658321.438,143.477,16.240,-15.88,0,0,0.2
071912.076,000380.jpg,120.63190784,24.02924074,212558.008,2658310.435,143.154,16.240,-15.87,0,0,0.2
071912.589,000381.jpg,120.63193933,24.02913955,212561.182,2658299.220,142.912,16.240,-16.23,0,0,0.2
071913.092,000382.jpg,120.63197234,24.02903953,212564.511,2658288.134,142.857,16.240,-16.71,0,0,0.2
071913.593,000383.jpg,120.63200535,24.02893960,212567.840,2658277.058,142.815,16.240,-17.12,0,0,0.2
071914.096,000384.jpg,120.63203945,24.02883919,212571.279,2658265.929,142.852,16.240,-17.63,0,0,0.2
071914.599,000385.jpg,120.63207487,24.02873864,212574.853,2658254.783,142.981,16.240,-18.16,0,0,0.2
071915.101,000386.jpg,120.63211149,24.02863752,212578.549,2658243.575,143.149,16.240,-18.36,0,0,0.2
071915.602,000387.jpg,120.63214769,24.02853627,212582.202,2658232.352,143.309,16.240,-18.09,0,0,0.2
071916.104,000388.jpg,120.63218309,24.02843484,212585.773,2658221.109,143.446,16.240,-17.61,0,0,0.2
071916.607,000389.jpg,120.63221752,24.02833351,212589.246,2658209.878,143.505,16.240,-17.18,0,0,0.2
071917.109,000390.jpg,120.63225091,24.02823262,212592.613,2658198.695,143.473,16.240,-16.73,0,0,0.2
071917.611,000391.jpg,120.63228331,24.02813176,212595.880,2658187.517,143.369,16.240,-16.36,0,0,0.2
071918.114,000392.jpg,120.63231517,24.02803043,212599.092,2658176.286,143.231,16.240,-15.99,0,0,0.2
071918.618,000393.jpg,120.63234651,24.02792860,212602.250,2658165.000,143.075,16.240,-15.78,0,0,0.2
071919.123,000394.jpg,120.63237786,24.02782653,212605.409,2658153.687,142.92,16.240,-15.7,0,0,0.2
071919.625,000395.jpg,120.63240902,24.02772532,212608.550,2658142.470,142.801,16.240,-15.89,0,0,0.2
071920.128,000396.jpg,120.63244072,24.02762405,212611.745,2658131.246,142.715,16.240,-16.19,0,0,0.2
071920.630,000397.jpg,120.63247293,24.02752316,212614.992,2658120.064,142.72,16.240,-16.45,0,0,0.2
071921.136,000398.jpg,120.63250623,24.02742191,212618.350,2658108.842,142.779,16.240,-16.83,0,0,0.2
071921.643,000399.jpg,120.63254000,24.02732091,212621.756,2658097.647,142.919,16.240,-17.31,0,0,0.2
071922.144,000400.jpg,120.63257408,24.02722153,212625.194,2658086.632,143.103,16.240,-17.64,0,0,0.2
071922.663,000401.jpg,120.63261003,24.02711920,212628.822,2658075.290,143.287,16.240,-18.08,0,0,0.2
071923.173,000402.jpg,120.63264597,24.02701938,212632.449,2658064.225,143.405,16.240,-18.4,0,0,0.2
071923.676,000403.jpg,120.63268192,24.02692110,212636.077,2658053.331,143.455,16.240,-18.56,0,0,0.2
071924.177,000404.jpg,120.63271764,24.02682279,212639.682,2658042.434,143.395,16.240,-18.2,0,0,0.2
071924.678,000405.jpg,120.63275250,24.02672370,212643.199,2658031.451,143.264,16.240,-17.64,0,0,0.2
071925.179,000406.jpg,120.63278638,24.02662370,212646.617,2658020.367,143.068,16.240,-16.96,0,0,0.2
071925.683,000407.jpg,120.63281853,24.02652203,212649.858,2658009.098,142.843,16.240,-16.31,0,0,0.2
071926.188,000408.jpg,120.63285052,24.02641930,212653.082,2657997.713,142.649,16.240,-15.82,0,0,0.2
071926.690,000409.jpg,120.63288181,24.02631682,212656.236,2657986.355,142.514,16.240,-15.7,0,0,0.2
071927.192,000410.jpg,120.63291340,24.02621441,212659.419,2657975.004,142.516,16.240,-16.01,0,0,0.2
071927.694,000411.jpg,120.63294532,24.02611224,212662.637,2657963.681,142.616,16.240,-16.13,0,0,0.2
071928.202,000412.jpg,120.63297839,24.02600940,212665.971,2657952.283,142.836,16.240,-16.53,0,0,0.2
071928.706,000413.jpg,120.63301193,24.02590854,212669.354,2657941.104,143.112,16.240,-17.2,0,0,0.2
071929.211,000414.jpg,120.63304614,24.02580797,212672.805,2657929.956,143.398,16.240,-17.37,0,0,0.2
071929.714,000415.jpg,120.63307867,24.02570778,212676.085,2657918.852,143.628,16.240,-16.16,0,0,0.2
071930.219,000416.jpg,120.63310850,24.02560391,212679.089,2657907.340,143.673,16.240,-14.29,0,0,0.2
071930.725,000417.jpg,120.63313500,24.02549708,212681.754,2657895.502,143.504,16.240,-12.32,0,0,0.2
071931.226,000418.jpg,120.63315322,24.02538956,212683.576,2657883.589,143.063,16.247,-7.81,0,0,0.2
071931.728,000419.jpg,120.63315946,24.02527921,212684.179,2657871.367,142.404,16.243,-0.93,0,0,0.2
071932.230,000420.jpg,120.63315055,24.02516668,212683.240,2657858.906,141.682,16.250,6.29,0,0,0.2
071932.747,000421.jpg,120.63312445,24.02505154,212680.552,2657846.162,140.972,16.250,14.32,0,0,0.2
071933.252,000422.jpg,120.63308283,24.02494073,212676.286,2657833.901,140.455,16.250,21.56,0,0,0.2
071933.760,000423.jpg,120.63302523,24.02483327,212670.396,2657822.015,140.295,16.250,28.48,0,0,0.2
071934.263,000424.jpg,120.63295703,24.02473401,212663.430,2657811.040,140.733,16.250,34.01,0,0,0.2
071934.773,000425.jpg,120.63288362,24.02463929,212655.935,2657800.569,141.68,16.250,35.81,0,0,0.2
071935.275,000426.jpg,120.63281273,24.02454913,212648.698,2657790.603,142.977,16.250,35.72,0,0,0.2
071935.777,000427.jpg,120.63274630,24.02446189,212641.915,2657780.959,144.226,16.250,34.61,0,0,0.2
071936.279,000428.jpg,120.63268358,24.02437364,212635.509,2657771.202,145.291,16.250,33.06,0,0,0.2
071936.784,000429.jpg,120.63262208,24.02428464,212629.228,2657761.362,146.177,16.250,31.83,0,0,0.2
071937.287,000430.jpg,120.63256431,24.02419499,212623.325,2657751.448,146.963,16.250,30.24,0,0,0.2
071937.791,000431.jpg,120.63250870,24.02410435,212617.642,2657741.425,147.479,16.250,28.64,0,0,0.2
071938.293,000432.jpg,120.63245727,24.02401347,212612.384,2657731.374,147.722,16.250,27.15,0,0,0.2
071938.795,000433.jpg,120.63240748,24.02392188,212607.293,2657721.243,147.748,16.250,25.84,0,0,0.2
071939.296,000434.jpg,120.63236100,24.02382971,212602.538,2657711.048,147.567,16.250,24.79,0,0,0.2
071939.797,000435.jpg,120.63231516,24.02373597,212597.848,2657700.678,147.264,16.250,24.05,0,0,0.2
071940.300,000436.jpg,120.63226992,24.02364188,212593.219,2657690.270,146.898,16.250,23.56,0,0,0.2
071940.804,000437.jpg,120.63222466,24.02354610,212588.587,2657679.675,146.532,16.250,23.38,0,0,0.2
071941.305,000438.jpg,120.63217927,24.02344979,212583.942,2657669.020,146.226,16.250,23.42,0,0,0.2
071941.808,000439.jpg,120.63213353,24.02335246,212579.261,2657658.253,146.067,16.250,23.26,0,0,0.2
071942.312,000440.jpg,120.63208799,24.02325451,212574.600,2657647.418,146.063,16.250,23.09,0,0,0.2
071942.823,000441.jpg,120.63204231,24.02315504,212569.924,2657636.414,146.289,16.250,22.75,0,0,0.2
071943.329,000442.jpg,120.63199779,24.02305666,212565.367,2657625.530,146.621,16.250,22.45,0,0,0.2
071943.835,000443.jpg,120.63195404,24.02295850,212560.888,2657614.670,147.029,16.250,22.18,0,0,0.2
071944.336,000444.jpg,120.63191182,24.02286149,212556.565,2657603.938,147.44,16.250,21.82,0,0,0.2
071944.837,000445.jpg,120.63187043,24.02276452,212552.327,2657593.210,147.834,16.250,21.18,0,0,0.2
071945.343,000446.jpg,120.63182992,24.02266625,212548.177,2657582.337,148.125,16.250,20.56,0,0,0.2
071945.849,000447.jpg,120.63179055,24.02256785,212544.144,2657571.450,148.278,16.250,20.02,0,0,0.2
071946.352,000448.jpg,120.63175286,24.02246991,212540.281,2657560.613,148.289,16.250,19.52,0,0,0.2
071946.858,000449.jpg,120.63171521,24.02237052,212536.423,2657549.616,148.158,16.250,19.1,0,0,0.2
071947.359,000450.jpg,120.63167823,24.02227146,212532.632,2657538.655,147.886,16.250,18.79,0,0,0.2
071947.866,000451.jpg,120.63163993,24.02216962,212528.706,2657527.386,147.489,16.250,18.79,0,0,0.2
071948.373,000452.jpg,120.63160129,24.02206492,212524.745,2657515.801,147.091,16.250,18.85,0,0,0.2
071948.875,000453.jpg,120.63156221,24.02196026,212520.740,2657504.221,146.739,16.250,19.03,0,0,0.2
071949.376,000454.jpg,120.63152221,24.02185431,212516.640,2657492.497,146.54,16.250,19.29,0,0,0.2
071949.878,000455.jpg,120.63148076,24.02174724,212512.392,2657480.651,146.684,16.250,19.91,0,0,0.2
071950.384,000456.jpg,120.63143669,24.02163933,212507.878,2657468.711,147.028,16.250,20.47,0,0,0.2
071950.885,000457.jpg,120.63139347,24.02153310,212503.451,2657456.958,147.555,16.250,20.51,0,0,0.2
071951.385,000458.jpg,120.63135221,24.02142843,212499.223,2657445.377,148.19,16.250,20.14,0,0,0.2
071951.887,000459.jpg,120.63131175,24.02132587,212495.077,2657434.029,148.968,16.250,19.42,0,0,0.2
071952.389,000460.jpg,120.63127455,24.02122395,212491.264,2657422.752,149.784,16.250,18.69,0,0,0.2
071952.897,000461.jpg,120.63123845,24.02112213,212487.562,2657411.485,150.448,16.250,17.34,0,0,0.2
071953.404,000462.jpg,120.63120608,24.02102106,212484.240,2657400.300,150.954,16.250,16.16,0,0,0.2
071953.906,000463.jpg,120.63117531,24.02092110,212481.080,2657389.238,151.176,16.250,15.69,0,0,0.2
071954.407,000464.jpg,120.63114487,24.02082142,212477.955,2657378.206,151.114,16.250,15.64,0,0,0.2
071954.915,000465.jpg,120.63111359,24.02072036,212474.744,2657367.023,150.74,16.250,16.04,0,0,0.2
071955.418,000466.jpg,120.63108068,24.02061942,212471.366,2657355.852,150.178,16.250,16.8,0,0,0.2
071955.919,000467.jpg,120.63104615,24.02051712,212467.824,2657344.532,149.461,16.250,17.45,0,0,0.2
071956.424,000468.jpg,120.63100855,24.02041216,212463.969,2657332.918,148.77,16.250,18.47,0,0,0.2
071956.926,000469.jpg,120.63096874,24.02030627,212459.888,2657321.201,148.3,16.250,19.35,0,0,0.2
071957.428,000470.jpg,120.63092626,24.02019948,212455.536,2657309.386,148.228,16.250,20.26,0,0,0.2
071957.933,000471.jpg,120.63088250,24.02009190,212451.053,2657297.483,148.509,16.250,20.51,0,0,0.2
071958.435,000472.jpg,120.63083914,24.01998517,212446.611,2657285.674,149.075,16.250,20.37,0,0,0.2
071958.937,000473.jpg,120.63079715,24.01987912,212442.309,2657273.940,149.822,16.250,20.03,0,0,0.2
071959.446,000474.jpg,120.63075520,24.01977259,212438.010,2657262.154,150.586,16.250,19.81,0,0,0.2
071959.952,000475.jpg,120.63071504,24.01966774,212433.895,2657250.552,151.393,16.250,19.12,0,0,0.2
072000.459,000476.jpg,120.63067693,24.01956457,212429.988,2657239.136,152.109,16.250,18.8,0,0,0.2
072000.961,000477.jpg,120.63063971,24.01946345,212426.172,2657227.947,152.695,16.250,18.7,0,0,0.2
072001.463,000478.jpg,120.63060306,24.01936345,212422.415,2657216.882,153.165,16.250,18.53,0,0,0.2
072001.965,000479.jpg,120.63056693,24.01926412,212418.710,2657205.891,153.372,16.250,18.48,0,0,0.2
072002.468,000480.jpg,120.63053068,24.01916501,212414.994,2657194.925,153.328,16.260,18.6,0,0,0.2
072002.978,000481.jpg,120.63049381,24.01906464,212411.214,2657183.819,153.061,16.250,18.47,0,0,0.2
072003.481,000482.jpg,120.63045749,24.01896480,212407.490,2657172.771,152.653,16.260,18.4,0,0,0.2
072003.986,000483.jpg,120.63041937,24.01886284,212403.583,2657161.489,152.259,16.260,18.66,0,0,0.2
072004.489,000484.jpg,120.63038098,24.01875840,212399.647,2657149.933,151.951,16.260,18.87,0,0,0.2
072004.991,000485.jpg,120.63034202,24.01865353,212395.653,2657138.329,151.766,16.260,18.9,0,0,0.2
072005.492,000486.jpg,120.63030216,24.01854833,212391.568,2657126.689,151.816,16.260,19.52,0,0,0.2
072005.999,000487.jpg,120.63026117,24.01844233,212387.367,2657114.961,152.036,16.260,19.46,0,0,0.2
072006.501,000488.jpg,120.63022212,24.01833804,212383.364,2657103.421,152.443,16.260,18.74,0,0,0.2
072007.005,000489.jpg,120.63018410,24.01823326,212379.466,2657091.827,152.836,16.260,18.39,0,0,0.2
072007.507,000490.jpg,120.63014602,24.01812921,212375.562,2657080.314,153.163,16.260,18.7,0,0,0.2
072008.008,000491.jpg,120.63010747,24.01802566,212371.610,2657068.856,153.464,16.260,18.95,0,0,0.2
072008.511,000492.jpg,120.63006823,24.01792201,212367.588,2657057.387,153.631,16.260,19.32,0,0,0.2
072009.014,000493.jpg,120.63002777,24.01781843,212363.442,2657045.927,153.716,16.260,19.9,0,0,0.2
072009.516,000494.jpg,120.62998617,24.01771490,212359.180,2657034.472,153.738,16.260,20.36,0,0,0.2
072010.019,000495.jpg,120.62994416,24.01761085,212354.876,2657022.960,153.791,16.260,20.3,0,0,0.2
072010.520,000496.jpg,120.62990251,24.01750676,212350.609,2657011.443,153.783,16.260,20.11,0,0,0.2
072011.025,000497.jpg,120.62986143,24.01740129,212346.399,2656999.773,153.74,16.260,19.47,0,0,0.2
072011.538,000498.jpg,120.62982091,24.01729317,212342.245,2656987.810,153.796,16.260,18.75,0,0,0.2
072012.040,000499.jpg,120.62978219,24.01718655,212338.275,2656976.012,153.984,16.260,18.33,0,0,0.2
072012.542,000500.jpg,120.62974396,24.01707993,212334.355,2656964.214,154.248,16.260,18.3,0,0,0.2
072013.058,000501.jpg,120.62970462,24.01697141,212330.321,2656952.207,154.708,16.260,18.41,0,0,0.2
072013.561,000502.jpg,120.62966682,24.01686691,212326.446,2656940.643,155.368,16.260,18.47,0,0,0.2
072014.075,000503.jpg,120.62962783,24.01676241,212322.449,2656929.081,156.15,16.260,19.19,0,0,0.2
072014.583,000504.jpg,120.62958843,24.01666028,212318.411,2656917.780,156.82,16.260,19.8,0,0,0.2
072015.087,000505.jpg,120.62954916,24.01656156,212314.387,2656906.858,157.256,16.260,20.06,0,0,0.2
072015.588,000506.jpg,120.62951048,24.01646431,212310.424,2656896.098,157.466,16.260,20,0,0,0.2
072016.090,000507.jpg,120.62947356,24.01636777,212306.640,2656885.416,157.51,16.260,19.56,0,0,0.2
072016.595,000508.jpg,120.62943661,24.01627068,212302.853,2656874.673,157.387,16.260,19.05,0,0,0.2
072017.097,000509.jpg,120.62940036,24.01617233,212299.136,2656863.791,157.176,16.260,18.71,0,0,0.2
072017.598,000510.jpg,120.62936432,24.01607395,212295.441,2656852.905,156.873,16.260,18.38,0,0,0.2
072018.110,000511.jpg,120.62932741,24.01597112,212291.656,2656841.526,156.56,16.260,18.09,0,0,0.2
072018.612,000512.jpg,120.62929124,24.01586790,212287.947,2656830.105,156.231,16.260,17.77,0,0,0.2
072019.112,000513.jpg,120.62925481,24.01576318,212284.210,2656818.517,156.011,16.260,17.85,0,0,0.2
072019.617,000514.jpg,120.62921650,24.01565553,212280.281,2656806.605,156.069,16.260,18.27,0,0,0.2
072020.120,000515.jpg,120.62917668,24.01554704,212276.199,2656794.600,156.382,16.260,18.91,0,0,0.2
072020.624,000516.jpg,120.62913539,24.01543896,212271.967,2656782.642,156.778,16.260,19.48,0,0,0.2
072021.136,000517.jpg,120.62909317,24.01533024,212267.640,2656770.612,157.229,16.260,19.69,0,0,0.2
072021.640,000518.jpg,120.62905235,24.01522460,212263.456,2656758.924,157.706,16.260,19.44,0,0,0.2
072022.142,000519.jpg,120.62901269,24.01512020,212259.391,2656747.372,158.154,16.260,19.1,0,0,0.2
072022.647,000520.jpg,120.62897363,24.01501593,212255.387,2656735.835,158.687,16.260,19.07,0,0,0.2
072023.163,000521.jpg,120.62893343,24.01491115,212251.267,2656724.241,159.182,16.260,19.45,0,0,0.2
072023.670,000522.jpg,120.62889374,24.01480883,212247.200,2656712.920,159.599,16.260,19.64,0,0,0.2
072024.172,000523.jpg,120.62885438,24.01470826,212243.166,2656701.793,159.771,16.260,19.83,0,0,0.2
072024.676,000524.jpg,120.62881458,24.01460773,212239.088,2656690.670,159.711,16.260,19.97,0,0,0.2
072025.178,000525.jpg,120.62877499,24.01450749,212235.031,2656679.579,159.428,16.260,19.82,0,0,0.2
072025.682,000526.jpg,120.62873567,24.01440593,212231.001,2656668.342,159.06,16.260,19.29,0,0,0.2
072026.183,000527.jpg,120.62869726,24.01430277,212227.064,2656656.927,158.71,16.260,18.8,0,0,0.2
072026.686,000528.jpg,120.62865883,24.01419890,212223.124,2656645.434,158.46,16.260,18.68,0,0,0.2
072027.188,000529.jpg,120.62862082,24.01409447,212219.226,2656633.879,158.484,16.260,18.44,0,0,0.2
072027.690,000530.jpg,120.62858285,24.01398963,212215.333,2656622.278,158.742,16.260,18.48,0,0,0.2
072028.194,000531.jpg,120.62854426,24.01388492,212211.376,2656610.692,159.119,16.261,18.95,0,0,0.2
072028.697,000532.jpg,120.62850534,24.01378117,212207.387,2656599.212,159.581,16.270,19.04,0,0,0.2
072029.198,000533.jpg,120.62846676,24.01367940,212203.432,2656587.952,160.063,16.270,19.05,0,0,0.2
072029.699,000534.jpg,120.62842846,24.01357757,212199.506,2656576.684,160.498,16.270,19.02,0,0,0.2
072030.204,000535.jpg,120.62839225,24.01347469,212195.792,2656565.300,160.618,16.270,18.25,0,0,0.2
072030.706,000536.jpg,120.62835974,24.01337063,212192.454,2656553.785,160.48,16.270,15.39,0,0,0.2
072031.210,000537.jpg,120.62833479,24.01326510,212189.885,2656542.104,160.141,16.270,10.82,0,0,0.2
072031.712,000538.jpg,120.62832118,24.01315931,212188.470,2656530.391,159.614,16.270,4.75,0,0,0.2
072032.215,000539.jpg,120.62831985,24.01305204,212188.303,2656518.512,158.973,16.270,-0.94,0,0,0.2
072032.719,000540.jpg,120.62832953,24.01294350,212189.256,2656506.488,158.396,16.270,-6.64,0,0,0.2
072033.232,000541.jpg,120.62835016,24.01283260,212191.323,2656494.201,158.136,16.270,-10.97,0,0,0.2
072033.733,000542.jpg,120.62837735,24.01272387,212194.057,2656482.152,158.161,16.270,-13.75,0,0,0.2
072034.241,000543.jpg,120.62840972,24.01261170,212197.317,2656469.720,158.609,16.270,-15.25,0,0,0.2
072034.744,000544.jpg,120.62844379,24.01250028,212200.751,2656457.372,159.261,16.270,-15.81,0,0,0.2
072035.247,000545.jpg,120.62847668,24.01238925,212204.064,2656445.066,160.101,16.270,-15.09,0,0,0.2
072035.753,000546.jpg,120.62850642,24.01227853,212207.057,2656432.796,160.999,16.270,-13.39,0,0,0.2
072036.254,000547.jpg,120.62853122,24.01216993,212209.549,2656420.762,161.776,16.270,-11.24,0,0,0.2
072036.758,000548.jpg,120.62855196,24.01206267,212211.627,2656408.878,162.41,16.270,-9.14,0,0,0.2
072037.260,000549.jpg,120.62856756,24.01195703,212213.184,2656397.174,162.851,16.270,-7.36,0,0,0.2
072037.768,000550.jpg,120.62858124,24.01185162,212214.544,2656385.496,163.145,16.270,-6.49,0,0,0.2
072038.271,000551.jpg,120.62859306,24.01174899,212215.717,2656374.127,163.204,16.270,-6.14,0,0,0.2
072038.777,000552.jpg,120.62860514,24.01164462,212216.915,2656362.565,162.978,16.270,-5.92,0,0,0.2
072039.280,000553.jpg,120.62861683,24.01154129,212218.075,2656351.118,162.486,16.270,-5.84,0,0,0.2
072039.786,000554.jpg,120.62862845,24.01143646,212219.226,2656339.505,161.799,16.270,-5.64,0,0,0.2
072040.286,000555.jpg,120.62863977,24.01133148,212220.347,2656327.876,160.975,16.270,-5.58,0,0,0.2
072040.789,000556.jpg,120.62865117,24.01122279,212221.475,2656315.835,160.091,16.270,-5.41,0,0,0.2
072041.292,000557.jpg,120.62866246,24.01111224,212222.591,2656303.589,159.303,16.270,-5.27,0,0,0.2
072041.794,000558.jpg,120.62867384,24.01099870,212223.716,2656291.012,158.802,16.270,-5.41,0,0,0.2
072042.298,000559.jpg,120.62868531,24.01088451,212224.849,2656278.362,158.687,16.270,-5.25,0,0,0.2
072042.800,000560.jpg,120.62869589,24.01077151,212225.893,2656265.845,159.002,16.270,-4.58,0,0,0.2
072043.312,000561.jpg,120.62870510,24.01065763,212226.796,2656253.230,159.674,16.270,-4.07,0,0,0.2
072043.817,000562.jpg,120.62871304,24.01054736,212227.572,2656241.016,160.627,16.270,-3.77,0,0,0.2
072044.321,000563.jpg,120.62872050,24.01043959,212228.300,2656229.078,161.563,16.270,-3.7,0,0,0.2
072044.827,000564.jpg,120.62872784,24.01033322,212229.015,2656217.296,162.397,16.270,-3.58,0,0,0.2
072045.329,000565.jpg,120.62873495,24.01022983,212229.708,2656205.844,162.962,16.270,-3.55,0,0,0.2
072045.831,000566.jpg,120.62874289,24.01012794,212230.486,2656194.557,163.173,16.270,-4.14,0,0,0.2
072046.333,000567.jpg,120.62875196,24.01002750,212231.380,2656183.431,163.098,16.270,-4.93,0,0,0.2
072046.840,000568.jpg,120.62876238,24.00992705,212232.411,2656172.304,162.784,16.270,-5.45,0,0,0.2
072047.341,000569.jpg,120.62877293,24.00982798,212233.455,2656161.329,162.257,16.270,-5.54,0,0,0.2
072047.847,000570.jpg,120.62878356,24.00972730,212234.507,2656150.176,161.632,16.270,-5.32,0,0,0.2
072048.350,000571.jpg,120.62879361,24.00962580,212235.500,2656138.932,160.924,16.270,-4.99,0,0,0.2
072048.858,000572.jpg,120.62880284,24.00952067,212236.408,2656127.287,160.293,16.270,-4.25,0,0,0.2
072049.360,000573.jpg,120.62880993,24.00941551,212237.099,2656115.639,159.811,16.270,-3.53,0,0,0.2
072049.871,000574.jpg,120.62881622,24.00930732,212237.707,2656103.655,159.543,16.270,-2.76,0,0,0.2
072050.372,000575.jpg,120.62882086,24.00920101,212238.148,2656091.880,159.525,16.270,-2.29,0,0,0.2
072050.875,000576.jpg,120.62882540,24.00909489,212238.579,2656080.126,159.792,16.270,-2.44,0,0,0.2
072051.382,000577.jpg,120.62883053,24.00898871,212239.070,2656068.365,160.226,16.270,-2.81,0,0,0.2
072051.889,000578.jpg,120.62883648,24.00888367,212239.645,2656056.731,160.74,16.270,-3.31,0,0,0.2
072052.390,000579.jpg,120.62884461,24.00878229,212240.442,2656045.501,161.234,16.270,-4.06,0,0,0.2
072052.895,000580.jpg,120.62885348,24.00868051,212241.315,2656034.227,161.644,16.270,-4.93,0,0,0.2
072053.410,000581.jpg,120.62886409,24.00857765,212242.364,2656022.832,161.888,16.279,-5.53,0,0,0.2
072053.916,000582.jpg,120.62887523,24.00847707,212243.468,2656011.690,161.922,16.280,-5.79,0,0,0.2
072054.426,000583.jpg,120.62888683,24.00837584,212244.619,2656000.476,161.726,16.280,-5.94,0,0,0.2
072054.931,000584.jpg,120.62889830,24.00827539,212245.756,2655989.348,161.387,16.280,-5.79,0,0,0.2
072055.433,000585.jpg,120.62890906,24.00817459,212246.822,2655978.182,160.925,16.280,-5.38,0,0,0.2
072055.938,000586.jpg,120.62891875,24.00807205,212247.777,2655966.823,160.366,16.280,-4.68,0,0,0.2
072056.442,000587.jpg,120.62892654,24.00796781,212248.540,2655955.276,159.798,16.280,-3.73,0,0,0.2
072056.947,000588.jpg,120.62893258,24.00786221,212249.123,2655943.580,159.301,16.280,-2.63,0,0,0.2
072057.454,000589.jpg,120.62893702,24.00775531,212249.544,2655931.739,158.915,16.280,-2.09,0,0,0.2
072057.961,000590.jpg,120.62894120,24.00764813,212249.938,2655919.868,158.752,16.280,-2.27,0,0,0.2
072058.468,000591.jpg,120.62894656,24.00754115,212250.452,2655908.019,158.801,16.280,-3.09,0,0,0.2
072058.972,000592.jpg,120.62895442,24.00743518,212251.221,2655896.281,159.078,16.280,-3.96,0,0,0.2
072059.473,000593.jpg,120.62896281,24.00733045,212252.044,2655884.680,159.492,16.280,-4.46,0,0,0.2
072059.981,000594.jpg,120.62897222,24.00722519,212252.970,2655873.020,159.972,16.280,-4.84,0,0,0.2
072100.484,000595.jpg,120.62898203,24.00712308,212253.938,2655861.709,160.435,16.280,-5.11,0,0,0.2
072100.986,000596.jpg,120.62899197,24.00702137,212254.920,2655850.442,160.796,16.280,-5.03,0,0,0.2
072101.488,000597.jpg,120.62900155,24.00692037,212255.865,2655839.253,160.997,16.280,-4.83,0,0,0.2
072101.989,000598.jpg,120.62901065,24.00682000,212256.762,2655828.135,161.031,16.280,-4.6,0,0,0.2
072102.492,000599.jpg,120.62901957,24.00671943,212257.640,2655816.995,160.892,16.280,-4.56,0,0,0.2
072102.994,000600.jpg,120.62902857,24.00661889,212258.526,2655805.858,160.611,16.280,-4.59,0,0,0.2
072103.508,000601.jpg,120.62903746,24.00651511,212259.400,2655794.362,160.178,16.280,-4.54,0,0,0.2
072104.012,000602.jpg,120.62904685,24.00641227,212260.326,2655782.970,159.748,16.280,-4.84,0,0,0.2
072104.514,000603.jpg,120.62905686,24.00630873,212261.314,2655771.500,159.397,16.280,-5.16,0,0,0.2
072105.021,000604.jpg,120.62906710,24.00620283,212262.325,2655759.769,159.168,16.280,-4.96,0,0,0.2
